[
  {
    "nombre": "Peluqueria Lauris",
    "tipo": "servicios",
    "categoria": "peluqueria",
    "descripcion": "Cortes, maquillaje y diseno de unas.",
    "direccion": "pio montufar y lauro coronel, esquina",
    "telefono": "+593959007258",
    "latitud": -4.22075350,
    "longitud": -79.25933824,
    "icono": "icon-peluqueria.jpeg",
    "imagenes": [
      "s1.jpg",
      "s1.1.jpg",
      "s1.2.jpg",
      "s1.3.jpg"
    ],
    "destacado": true,
    "banner": "banner-lauris.jpg"
  },
  {
    "nombre": "Lavadora ROA",
    "tipo": "servicios",
    "categoria": "lavadora",
    "descripcion": "Lavadora enderesada y pintura de carros.",
    "direccion": "Av.Loja diagonal a ferretería Disensa.",
    "telefono": "+593959007258",
    "latitud": -4.21624736,
    "longitud": -79.25480778,
    "icono": "icon-lavadora-carros.jpeg",
    "imagenes": [
      "s2-lavadora-carros.jpg",
      "s2.1.jpg"
    ]
  },
    {
    "nombre": "Comercial Narcisa de Jesús",
    "tipo": "servicios",
    "categoria": "tienda",
    "descripcion": "Venta de insumos y alimentos para el hogar.",
    "direccion": "pio montufar y lauro coronel, esquina",
    "telefono": "+593959007258",
    "latitud": -4.22045322,
    "longitud": -79.25902836,
    "icono": "icon-tienda.jpeg",
    "imagenes": [
      "s4-tienda-narcisa-jesus.jpg",
      "s4.1.jpg",
      "s4.2.jpg"
    ],
    "destacado": true
  },
  {
    "nombre": "Carpinteria Medina",
    "tipo": "servicios",
    "categoria": "carpinteria",
    "descripcion": "Diseño y construcción en madera.",
    "direccion": "Av. Loja diagonal a la entrada a Calera",
    "telefono": "+593959007258",
    "latitud": -4.216438,
    "longitud": -79.255175,
    "icono": "icon-carpinteria.jpeg",
    "imagenes": [
      "s6-carpinteria-medina-avenida.jpg",
      "s6.1.jpg",
      "s6.2.jpg"
    ],
    "destacado": false
  },
  {
    "nombre": "NCS Materiales",
    "tipo": "servicios",
    "categoria": "material petreo",
    "descripcion": "Venta de materiales para la costruccion y alquiler de equipo para la construcción.",
    "direccion": "Av.Loja y entrada a calera, esquina",
    "telefono": "+593959007258",
    "latitud": -4.216718,
    "longitud": -79.256153,
    "icono": "icon-material-petreo.jpeg",
    "imagenes": [
      "s7-material-petreo-ncs.jpg",
      "s7.1.jpg"
    ],
    "destacado": false
  },
    {
    "nombre": "Hostal Valto",
    "tipo": "servicios",
    "categoria": "hostal",
    "descripcion": "Centro reacresion y alojamiento temporal.",
    "direccion": "Pio montufar y",
    "telefono": "+593959007258",
    "latitud": -4.219635,
    "longitud": -79.257843,
    "icono": "icon-hostal.jpeg",
    "imagenes": [
      "s8-hostal-valto.jpg"
    ],
    "destacado": false
  },
  {
    "nombre": "Hostal Villa Colonial",
    "tipo": "servicios",
    "categoria": "hostal",
    "descripcion": "Centro reacresion y alojamiento temporal.",
    "direccion": "Pio montufar y estupiñan",
    "telefono": "+593959007258",
    "latitud": -4.219026,
    "longitud": -79.257750,
    "icono": "icon-hostal.jpeg",
    "imagenes": [
      "s9-hostal-villa-colonial.jpg"
    ],
    "destacado": false
  },

  {
    "nombre": "GABRIELA, bar restaurante, cafeteria",
    "tipo": "servicios",
    "categoria": "restaurante-cafe-bar",
    "descripcion": "Gastronomia local y sevicios gastronomicas.",
    "direccion": "Av. Loja y ",
    "telefono": "+593959007258",
    "latitud": -4.217181,
    "longitud": -79.256879,
    "icono": "icon-restaurante-cafe-bar.jpeg",
    "imagenes": [
      "s10-restaurante-cafe-bar-gabriela.jpg"
    ],
    "destacado": false
  },
    {
    "nombre": "Supermercado JALEK",
    "tipo": "servicios",
    "categoria": "supermercado",
    "descripcion": "Venta de todo tipo de insumos para el hogar.",
    "direccion": "Av. Loja y ",
    "telefono": "+593959007258",
    "latitud": -4.217257,
    "longitud": -79.257198,
    "icono": "icon-supermercado.jpeg",
    "imagenes": [
      "s11-supermercado-halek.jpg"
    ],
    "destacado": false
  },
    {
    "nombre": "Panadería Sabor Lojano",
    "tipo": "servicios",
    "categoria": "panaderia",
    "descripcion": "Panadería y pastelería.",
    "direccion": "Av. Loja y ",
    "telefono": "+593959007258",
    "latitud": -4.217414,
    "longitud": -79.257331,
    "icono": "icon-panaderia.jpeg",
    "imagenes": [
      "s12-panaderia.jpg"
    ],
    "destacado": false
  },

  {
    "nombre": "Cabañas del sol",
    "tipo": "servicios",
    "categoria": "hosteria",
    "descripcion": "recreación y hospedaje.",
    "direccion": "Av. Loja y ",
    "telefono": "+593959007258",
    "latitud": -4.214117,
    "longitud": -79.251013,
    "icono": "icon-hosteria.jpeg",
    "imagenes": [
      "s13-hosteria-cabañas-sol.jpg"
    ],
    "destacado": false
  },
  {
    "nombre": "Kita Picas",
    "tipo": "servicios",
    "categoria": "licoreria",
    "descripcion": "Venta de bebidas alcoholicas y no alcoholicas.",
    "direccion": "Av. Loja y ",
    "telefono": "+593959007258",
    "latitud": -4.217141,
    "longitud": -79.256367,
    "icono": "icon-licoreria.jpeg",
    "imagenes": [
      "s14-licoreria.jpg"
    ],
    "destacado": false
  },
    {
    "nombre": "Tecni Centro Delgado",
    "tipo": "servicios",
    "categoria": "lubricadora",
    "descripcion": "Arreglo, lavado de autos y servicio de torno.",
    "direccion": "Av. Loja y ",
    "telefono": "+593959007258",
    "latitud": -4.217648,
    "longitud": -79.257414,
    "icono": "icon-lubricadora.jpeg",
    "imagenes": [
      "s15-lubricadora-delgado.jpg"
    ],
    "destacado": false
  },
  
    {
    "nombre": "Ferretería CODECA materiales de construcción",
    "tipo": "servicios",
    "categoria": "ferreteria",
    "descripcion": "Venta de productos de construcción",
    "direccion": "Av. Loja y ",
    "telefono": "+593959007258",
    "latitud": -4.217630,
    "longitud": -79.257771,
    "icono": "icon-ferreteria.jpeg",
    "imagenes": [
      "s16-ferreteria.jpg"
    ],
    "destacado": false
  },
  
  {
    "nombre": "Supermercado Sumba",
    "tipo": "servicios",
    "categoria": "supermercado",
    "descripcion": "Venta de todo tipo de insumos para el hogar.",
    "direccion": "Av. Loja y ",
    "telefono": "+593959007258",
    "latitud": -4.217488,
    "longitud": -79.257537,
    "icono": "icon-supermercado.jpeg",
    "imagenes": [
      "s18-supermercado-sumba.jpg"
    ],
    "destacado": false
  },
    {
    "nombre": "Agropecuaria El finquero",
    "tipo": "servicios",
    "categoria": "agropecuaria",
    "descripcion": "Venta de producto agropecuario",
    "direccion": "Av. Loja y ",
    "telefono": "+593959007258",
    "latitud": -4.217793,
    "longitud": -79.257629,
    "icono": "icon-agropecuaria.jpeg",
    "imagenes": [
      "s17-agropecuaria.jpg"
    ],
    "destacado": false
  },
  {
    "nombre": "Agropecuaria Vilcagro",
    "tipo": "servicios",
    "categoria": "agropecuaria",
    "descripcion": "Venta de producto agropecuario",
    "direccion": "Av. Loja y ",
    "telefono": "+593959007258",
    "latitud": -4.217739,
    "longitud": -79.257463,
    "icono": "icon-agropecuaria.jpeg",
    "imagenes": [
      "s19-agropecuaria.jpg"
    ],
    "destacado": false
  },
    {
    "nombre": "Restaurante Rojas",
    "tipo": "servicios",
    "categoria": "restaurante",
    "descripcion": "Gastronomia local y sevicios gastronomicas.",
    "direccion": "Av. Loja y ",
    "telefono": "+593959007258",
    "latitud": -4.217557,
    "longitud": -79.257183,
    "icono": "icon-restaurante.jpeg",
    "imagenes": [
      "s20-restaurante-rojas.jpg"
    ],
    "destacado": false
  },
  {
    "nombre": "Farmacia Cuxibamba",
    "tipo": "servicios",
    "categoria": "farmacia",
    "descripcion": "Medicina y medicamentos para su salud.",
    "direccion": "Av. Loja y ",
    "telefono": "+593959007258",
    "latitud": -4.218150,
    "longitud": -79.258686,
    "icono": "icon-farmacia.jpeg",
    "imagenes": [
      "s21-farmacia-cuxibamba.jpg"
    ],
    "destacado": false
  },
    {
    "nombre": "Farmacia Economica",
    "tipo": "servicios",
    "categoria": "farmacia",
    "descripcion": "Medicina y medicamentos para su salud.",
    "direccion": "Av. Loja y ",
    "telefono": "+593959007258",
    "latitud": -4.218160,
    "longitud": -79.258302,
    "icono": "icon-farmacia.jpeg",
    "imagenes": [
      "s22-farmacia-economica.jpg"
    ],
    "destacado": false
  },
    {
    "nombre": "Farmacia Nuestra Señora de Lourdes",
    "tipo": "servicios",
    "categoria": "farmacia",
    "descripcion": "Medicina y medicamentos para su salud.",
    "direccion": "Av. Loja y ",
    "telefono": "+593959007258",
    "latitud": -4.218023,
    "longitud": -79.258514,
    "icono": "icon-farmacia.jpeg",
    "imagenes": [
      "s23-farmacia-nuestra-señora-lourdes.jpg"
    ],
    "destacado": false
  },
    {
    "nombre": "Proton",
    "tipo": "servicios",
    "categoria": "celulares",
    "descripcion": "Servicio tectico y accesorios telefonicos.",
    "direccion": "Av. Loja y ",
    "telefono": "+593959007258",
    "latitud": -4.218467,
    "longitud": -79.258359,
    "icono": "icon-celulares.jpeg",
    "imagenes": [
      "s24-celulares-proton.jpg"
    ],
    "destacado": false
  },
  {
    "nombre": "Yunnan",
    "tipo": "servicios",
    "categoria": "chifa",
    "descripcion": "Venta de gastronomía China.",
    "direccion": "Av. Loja y ",
    "telefono": "+593959007258",
    "latitud": -4.215658,
    "longitud": -79.253654,
    "icono": "icon-chifa.jpeg",
    "imagenes": [
      "s25-chifa.jpg"
    ],
    "destacado": false
  },
  {
    "nombre": "La Pampa",
    "tipo": "servicios",
    "categoria": "canchas-futbol",
    "descripcion": "Espacio recreacional, para campionatos de varones y mujeres.",
    "direccion": "Entrada a la granja 300m ",
    "telefono": "+593959007258",
    "latitud": -4.215567,
    "longitud": -79.255660,
    "icono": "icon-canchas-futbol.jpeg",
    "imagenes": [
      "s26-canchas-la-pampa.jpg"
    ],
    "destacado": false
  },
  {
    "nombre": "Dicoteca Level ONE",
    "tipo": "servicios",
    "categoria": "bar-discoteca",
    "descripcion": "Fiesta y disfrute entre amigos.",
    "direccion": "Av. Loja y ",
    "telefono": "+593959007258",
    "latitud": -4.217194,
    "longitud": -79.256606,
    "icono": "icon-bar-discoteca.jpeg",
    "imagenes": [
      "s27-discoteca-level1.jpg"
    ],
    "destacado": false
  },
  {
    "nombre": "Vulcanizadora Señor de la Caridad",
    "tipo": "servicios",
    "categoria": "vulcanizadora",
    "descripcion": "Arregló y acomodo en vulcanización.",
    "direccion": "Av. Loja y ",
    "telefono": "+593959007258",
    "latitud": -4.215904,
    "longitud": -79.254871,
    "icono": "icon-vulcanizadora.jpeg",
    "imagenes": [
      "s28-vulcanizadora-señor-caridad.jpg"
    ],
    "destacado": false
  },
    {
    "nombre": "Lavadora de carros MATHI",
    "tipo": "servicios",
    "categoria": "lavadora",
    "descripcion": "Lavado de carros.",
    "direccion": "Av. Loja y ",
    "telefono": "+593959007258",
    "latitud": -4.216319,
    "longitud": -79.255000,
    "icono": "icon-lavadora-carros.jpeg",
    "imagenes": [
      "s29-lavadora-carros-MATHI.jpg"
    ],
    "destacado": false
  },
    {
    "nombre": "Lubricadora Vas del",
    "tipo": "servicios",
    "categoria": "lubricadora",
    "descripcion": "Lubricadora de carros.",
    "direccion": "Av. Loja y ",
    "telefono": "+593959007258",
    "latitud": -4.217520,
    "longitud": -79.257892,
    "icono": "icon-lubricadora.jpeg",
    "imagenes": [
      "s30-lubricadora-vas.jpg"
    ],
    "destacado": false
  },
  {
    "nombre": "Comercial El Sol",
    "tipo": "servicios",
    "categoria": "comercial",
    "descripcion": "Venta de electronicos y muebles en general.",
    "direccion": "Av. Loja y ",
    "telefono": "+593959007258",
    "latitud": -4.217961,
    "longitud": -79.257935,
    "icono": "icon-comercial.jpeg",
    "imagenes": [
      "s31-comercial-sol.jpg"
    ],
    "destacado": false
  },
  {
    "nombre": "Micromercial Elizabeth",
    "tipo": "servicios",
    "categoria": "tienda",
    "descripcion": "Venta de insumos y alimentos para el hogar.",
    "direccion": "pio montufar , esquina junto a farmacias MIA",
    "telefono": "+593959007258",
    "latitud": -4.218381,
    "longitud": -79.258637,
    "icono": "icon-tienda.jpeg",
    "imagenes": [
      "s32-micromercado-elizabeth.jpg",
      "s32.1.jpg",
      "s32.2.jpg"
    ],
    "destacado": false
  },
    {
    "nombre": "Vivero ",
    "tipo": "servicios",
    "categoria": "vivero",
    "descripcion": "Venta de hornamento.",
    "direccion": "pio m",
    "telefono": "+593959007258",
    "latitud": -4.218295,
    "longitud": -79.258840,
    "icono": "icon-vivero.jpeg",
    "imagenes": [
      "s33-vivero.jpg",
      "s33.1.jpg",
      "s33.2.jpg"
    ],
    "destacado": false
      
  },

  {
    "nombre": "Equipos para piscina",
    "tipo": "servicios",
    "categoria": "piscina",
    "descripcion": "Diseño, accesorios y construcción de piscinas.",
    "direccion": "pio montufear.",
    "telefono": "+593959007258",
    "latitud": -4.218472,
    "longitud": -79.258739,
    "icono": "icon-piscina.jpeg",
    "imagenes": [
      "s34-piscina.jpg",
      "s34.1.jpg"
    ]
  },
  
  {
    "nombre": "Unidad Educativa",
    "tipo": "servicios",
    "categoria": "educacion",
    "descripcion": "Centro Educativo.",
    "direccion": "Av.Loja y Av Pio Jaramillo.",
    "telefono": "+593959007258",
    "latitud": -4.218580,
    "longitud": -79.258904,
    "icono": "icon-educativo.jpeg",
    "imagenes": [
      "s35-educacion.jpg",
      "s35.1.jpg"
    ]
  },
    
  {
    "nombre": "Chalan",
    "tipo": "servicios",
    "categoria": "soldadura",
    "descripcion": "Diseño y construcción en metal.",
    "direccion": "Av. Loja a 290m entrada a Calera",
    "telefono": "+593959007258",
    "latitud": -4.228580,
    "longitud": -79.258904,
    "icono": "icon-soldadura.jpeg",
    "imagenes": [
      "s36-soldadura-chalan.jpg",
      "s36.1.jpg"
    ]
  },
    {
    "nombre": "MOTUS",
    "tipo": "servicios",
    "categoria": "motos",
    "descripcion": "Reparacion de motos.",
    "direccion": "Av. Loja a 290m entrada a Calera",
    "telefono": "+593959007258",
    "latitud": -4.228880,
    "longitud": -79.258904,
    "icono": "icon-motos.jpeg",
    "imagenes": [
      "s37-motos-motus.jpg",
      "s37.1.jpg"
    ]
  },
  {
    "nombre": "Hosteria San Antonio",
    "tipo": "servicios",
    "categoria": "centro-eventos",
    "descripcion": "Espacio para la realizacion de eventos.",
    "direccion": "Av. Loja a 50m entrada a Calera",
    "telefono": "+593959007258",
    "latitud": -4.229780,
    "longitud": -79.258904,
    "icono": "icon-centro-eventos.jpeg",
    "imagenes": [
      "s38-centro-eventos.jpg",
      "s38.1.jpg"
    ]
  },
    {
    "nombre": "Aserradero Soto",
    "tipo": "servicios",
    "categoria": "aserradero",
    "descripcion": "Venta de madera al por mayor y menor.",
    "direccion": "Av. Loja a frente a la entrada a Calera",
    "telefono": "+593959007258",
    "latitud": -4.222780,
    "longitud": -79.258904,
    "icono": "icon-aserradero.jpeg",
    "imagenes": [
      "s39-aserradero-soto.jpg",
      "s39.1.jpg"
    ]
  },
  {
    "nombre": "Aserradero Troya",
    "tipo": "servicios",
    "categoria": "aserradero",
    "descripcion": "Venta de madera al por mayor y menor.",
    "direccion": "Av. Loja a frente de discoteca L1",
    "telefono": "+593959007258",
    "latitud": -4.224480,
    "longitud": -79.258904,
    "icono": "icon-aserradero.jpeg",
    "imagenes": [
      "s40-aserradero-soto.jpg",
      "s40.1.jpg"
    ]
  },
    {
    "nombre": "Fabrica de caña Ocampo",
    "tipo": "servicios",
    "categoria": "fabrica-caña",
    "descripcion": "Producción de panela de caña.",
    "direccion": " a 200m de la Av. Loja ",
    "telefono": "+593959007258",
    "latitud": -4.234480,
    "longitud": -79.258904,
    "icono": "icon-fabrica-caña.jpeg",
    "imagenes": [
      "s41-fabrica-caña-ocampo.jpg",
      "s41.1.jpg"
    ]
  },
   {
    "nombre": "Farmacia MIAS",
    "tipo": "servicios",
    "categoria": "farmacia",
    "descripcion": "Medicina y medicamentos para su salud.",
    "direccion": "Av. Loja y Av.Pio jaramillo",
    "telefono": "+593959007258",
    "latitud": -4.218023,
    "longitud": -79.258534,
    "icono": "icon-farmacia.jpeg",
    "imagenes": [
      "s42-farmacia-MIAS.jpg"
    ],
    "destacado": false
  },
    {
    "nombre": "Restaurante Maria",
    "tipo": "servicios",
    "categoria": "asadero-pollo",
    "descripcion": "Pollo asado y Gastronomia local.",
    "direccion": "Av. Pio Jaramillo y Alejandro  Bravo",
    "telefono": "+593959007258",
    "latitud": -4.221,
    "longitud": -79.241,
    "icono": "icon-asdero-pollo.jpeg",
    "imagenes": [
      "s43-asadero-pollo-maria.jpg"
    ],
    "destacado": false
  },
      {
    "nombre": "Restaurante Comida Mexicana",
    "tipo": "servicios",
    "categoria": "comida-rapida-mexicana",
    "descripcion": "Comida Mexicana.",
    "direccion": "Av. Pio Jaramillo y Alejandro  Bravo",
    "telefono": "+593959007258",
    "latitud": -4.222,
    "longitud": -79.242,
    "icono": "icon-comida-rapida-mexicana.jpeg",
    "imagenes": [
      "s44-comida-rapida-mexicana.jpg"
    ],
    "destacado": false
  },
  
      {
    "nombre": "Encebollados y algo mas",
    "tipo": "servicios",
    "categoria": "marisqueria",
    "descripcion": "Comida manaba, marisqueria.",
    "direccion": "Av. Pio Jaramillo y Alejandro  Bravo",
    "telefono": "+593959007258",
    "latitud": -4.223,
    "longitud": -79.242,
    "icono": "icon-marisqueria.jpeg",
    "imagenes": [
      "s45-marisqueria.jpg"
    ],
    "destacado": false
  },
  
      {
    "nombre": "Perú Mar",
    "tipo": "servicios",
    "categoria": "",
    "descripcion": "Marisqueria.",
    "direccion": "Av. Loja y Pio Jaramillo",
    "telefono": "+593959007258",
    "latitud": -4.224,
    "longitud": -79.242,
    "icono": "icon-marisqueria.jpeg",
    "imagenes": [
      "s46-marisqueria.jpg"
    ],
    "destacado": false
  },
  {
    "nombre": "Distribuidora Loja gas",
    "tipo": "servicios",
    "categoria": "",
    "descripcion": "Venta y distribución de gas.",
    "direccion": "Av. Loja y Pio Jaramillo",
    "telefono": "+593959007258",
    "latitud": -4.2235,
    "longitud": -79.242,
    "icono": "icon-distribuidora-gas.jpeg",
    "imagenes": [
      "s47-distribuidora-gas.jpg"
    ],
    "destacado": false
  },
    {
    "nombre": "Distribuidora Loja gas",
    "tipo": "servicios",
    "categoria": "",
    "descripcion": "Venta y distribución de gas.",
    "direccion": "Av.Pio Jaramillo y alejandro bravo",
    "telefono": "+593959007258",
    "latitud": -4.2237,
    "longitud": -79.242,
    "icono": "icon-distribuidora-gas.jpeg",
    "imagenes": [
      "s48-distribuidora-gas-riofrio.jpg"
    ],
    "destacado": false
  },
      {
    "nombre": "Cooperativa CACPE",
    "tipo": "servicios",
    "categoria": "",
    "descripcion": "Cooperativa de ahorro y crédito.",
    "direccion": "Av.Loja y Pio Jaramillo",
    "telefono": "+593959007258",
    "latitud": -4.2239,
    "longitud": -79.242,
    "icono": "icon-cooperativa.jpeg",
    "imagenes": [
      "s49-cooperativa-cacpe.jpg"
    ],
    "destacado": false
  },
  
      {
    "nombre": "Papelería Lanche",
    "tipo": "servicios",
    "categoria": "",
    "descripcion": "Todo en papeleria en general.",
    "direccion": "Av.Loja y Pio Jaramillo",
    "telefono": "+593959007258",
    "latitud": -4.2239,
    "longitud": -79.2441,
    "icono": "icon-papeleria.jpeg",
    "imagenes": [
      "s50-papeleria-lanche.jpg"
    ],
    "destacado": false
  },
  
      {
    "nombre": "Peluquería Rocio",
    "tipo": "servicios",
    "categoria": "",
    "descripcion": "Cortes y peinados para hombre y mujer.",
    "direccion": "Av. Pio Jaramillo y Manuel Ignacio Godoy",
    "telefono": "+593959007258",
    "latitud": -4.2239,
    "longitud": -79.2442,
    "icono": "icon-peluqueria.jpeg",
    "imagenes": [
      "s51-peluqueria-rocio.jpg"
    ],
    "destacado": false
  },
     {
    "nombre": "Barbería 1",
    "tipo": "servicios",
    "categoria": "",
    "descripcion": "Cortes y peinados para hombre.",
    "direccion": "Av. Pio Jaramillo y Manuel Ignacio Godoy",
    "telefono": "+593959007258",
    "latitud": -4.2239,
    "longitud": -79.2444,
    "icono": "icon-barberia.jpeg",
    "imagenes": [
      "s52-barberia-1.jpg"
    ],
    "destacado": false
  },
  {
    "nombre": "Barbería 2",
    "tipo": "servicios",
    "categoria": "",
    "descripcion": "Cortes y peinados para hombre.",
    "direccion": "Av. Pio Jaramillo y Manuel Ignacio Godoy",
    "telefono": "+593959007258",
    "latitud": -4.2239,
    "longitud": -79.2443,
    "icono": "icon-barberia.jpeg",
    "imagenes": [
      "s53-barberia-2.jpg"
    ],
    "destacado": false
  },
    {
    "nombre": "Barbería 3",
    "tipo": "servicios",
    "categoria": "",
    "descripcion": "Cortes y peinados para hombre.",
    "direccion": "Miguel Riofrio y Manuel Ignacio Godoy",
    "telefono": "+593959007258",
    "latitud": -4.2239,
    "longitud": -79.2445,
    "icono": "icon-barbeia.jpeg",
    "imagenes": [
      "s54-barberia-3.jpg"
    ],
    "destacado": false
  },
  {
    "nombre": "Odontología",
    "tipo": "servicios",
    "categoria": "",
    "descripcion": "Trabajos en odontología.",
    "direccion": "Av. Pio Jaramillo y Manuel Ignacio Godoy",
    "telefono": "+593959007258",
    "latitud": -4.223956,
    "longitud": -79.2445,
    "icono": "icon-odontologia.jpeg",
    "imagenes": [
      "s55-dontologia-1.jpg"
    ],
    "destacado": false
  },
  {
    "nombre": "Cajero banco de Loja",
    "tipo": "servicios",
    "categoria": "",
    "descripcion": "Cajero automático .",
    "direccion": "Justiano Estupiñan",
    "telefono": "+593959007258",
    "latitud": -4.223755676,
    "longitud": -79.242,
    "icono": "icon-corporacion-financiera.jpeg",
    "imagenes": [
      "s56-corporacion-financiera-fases.jpg"
    ],
    "destacado": false
  },
  {
    "nombre": "Cajero JEP",
    "tipo": "servicios",
    "categoria": "",
    "descripcion": "Cajero automático.",
    "direccion": "Justiniano Estupiñan",
    "telefono": "+593959007258",
    "latitud": -4.223757566,
    "longitud": -79.242,
    "icono": "icon-corporacion-financiera.jpeg",
    "imagenes": [
      "s57-corporacion-financiera-jep.jpg"
    ],
    "destacado": false
  },
    {
    "nombre": "Odontología 2",
    "tipo": "servicios",
    "categoria": "",
    "descripcion": "Trabajos en odontología.",
    "direccion": "Av. Pio Jaramillo y Manuel Ignacio Godoy",
    "telefono": "+593959007258",
    "latitud": -4.223965,
    "longitud": -79.2445,
    "icono": "icon-odontologia.jpeg",
    "imagenes": [
      "s58-dontologia-2.jpg"
    ],
    "destacado": false
  },
    {
    "nombre": "Ferretería Disensa",
    "tipo": "servicios",
    "categoria": "ferreteria",
    "descripcion": "Materiales para la construcción.",
    "direccion": "Av. Loja y entrada a Calera esquina.",
    "telefono": "+593959007258",
    "latitud": -4.21648866,
    "longitud": -79.25574610,
    "icono": "icon-ferreteria.jpeg",
    "imagenes": [
      "s5-ferreteria-disensa.jpg",
      "s5.1.jpg"
    ]
  }

]
