[
  {
    "nombre": "Peluqueria Lauris",
    "tipo": "servicios",
    "categoria": "peluqueria",
    "descripcion": "Cortes, maquillaje y diseno de unas.",
    "direccion": "pio montufar y lauro coronel, esquina",
    "telefono": "+593959007258",
    "latitud": -4.22075350,
    "longitud": -79.25933824,
    "icono": "icon-peluqueria.jpeg",
    "imagenes": [
      "s1.jpg",
      "s1.1.jpg",
      "s1.2.jpg",
      "s1.3.jpg"
    ],
    "destacado": true,
    "banner": "banner-lauris.jpg"
  },
  {
    "nombre": "Lavadora ROA",
    "tipo": "servicios",
    "categoria": "lavadora",
    "descripcion": "Lavadora enderesada y pintura de carros.",
    "direccion": "Av.Loja diagonal a ferretería Disensa.",
    "telefono": "+593959007258",
    "latitud": -4.21624736,
    "longitud": -79.25480778,
    "icono": "icon-lavadora-carros.jpeg",
    "imagenes": [
      "s2-lavadora-carros.jpg",
      "s2.1.jpg"
    ]
  },
    {
    "nombre": "Comercial Narcisa de Jesús",
    "tipo": "servicios",
    "categoria": "tienda",
    "descripcion": "Venta de insumos y alimentos para el hogar.",
    "direccion": "pio montufar y lauro coronel, esquina",
    "telefono": "+593959007258",
    "latitud": -4.22045322,
    "longitud": -79.25902836,
    "icono": "icon-tienda.jpeg",
    "imagenes": [
      "s4-tienda-narcisa-jesus.jpg",
      "s4.1.jpg",
      "s4.2.jpg"
    ],
    "destacado": true
  },
  {
    "nombre": "Carpinteria Medina",
    "tipo": "servicios",
    "categoria": "carpinteria",
    "descripcion": "Diseño y construcción en madera.",
    "direccion": "Av. Loja diagonal a la entrada a Calera",
    "telefono": "+593959007258",
    "latitud": -4.216438,
    "longitud": -79.255175,
    "icono": "icon-carpinteria.jpeg",
    "imagenes": [
      "s6-carpinteria-medina-avenida.jpg",
      "s6.1.jpg",
      "s6.2.jpg"
    ],
    "destacado": false
  },
  {
    "nombre": "NCS Materiales",
    "tipo": "servicios",
    "categoria": "material petreo",
    "descripcion": "Venta de materiales para la costruccion y alquiler de equipo para la construcción.",
    "direccion": "Av.Loja y entrada a calera, esquina",
    "telefono": "+593959007258",
    "latitud": -4.216718,
    "longitud": -79.256153,
    "icono": "icon-material-petreo.jpeg",
    "imagenes": [
      "s7-material-petreo-ncs.jpg",
      "s7.1.jpg"
    ],
    "destacado": false
  },
    {
    "nombre": "Hosteria Valto",
    "tipo": "servicios",
    "categoria": "hosteria",
    "descripcion": "Centro reacresion y alojamiento temporal.",
    "direccion": "Pio montufar y",
    "telefono": "+593959007258",
    "latitud": -4.219635,
    "longitud": -79.257843,
    "icono": "icon-hosteria.jpeg",
    "imagenes": [
      "s8-hosteria-valto.jpg"
    ],
    "destacado": false
  },
  {
    "nombre": "Hosteria Villa Colonial",
    "tipo": "servicios",
    "categoria": "hosteria",
    "descripcion": "Centro reacresion y alojamiento temporal.",
    "direccion": "Pio montufar y estupiñan",
    "telefono": "+593959007258",
    "latitud": -4.219026,
    "longitud": -79.257750,
    "icono": "icon-hosteria.jpeg",
    "imagenes": [
      "s9-hosteria-villa-colonial.jpg"
    ],
    "destacado": false
  },

  {
    "nombre": "GABRIELA, bar restaurante, cafeteria",
    "tipo": "servicios",
    "categoria": "restaurante",
    "descripcion": "Gastronomia local y sevicios gastronomicas.",
    "direccion": "Av. Loja y ",
    "telefono": "+593959007258",
    "latitud": -4.217181,
    "longitud": -79.256879,
    "icono": "icon-restaurante-cafe-bar.jpeg",
    "imagenes": [
      "s10-restaurante-cafe-bar-gabriela.jpg"
    ],
    "destacado": false
  },
    {
    "nombre": "Supermercado JALEK",
    "tipo": "servicios",
    "categoria": "super-mercado",
    "descripcion": "Venta de todo tipo de insumos para el hogar.",
    "direccion": "Av. Loja y ",
    "telefono": "+593959007258",
    "latitud": -4.217257,
    "longitud": -79.257198,
    "icono": "icon-supermercado.jpeg",
    "imagenes": [
      "s11-supermercado-halek.jpg"
    ],
    "destacado": false
  },
    {
    "nombre": "Panadería Sabor Lojano",
    "tipo": "servicios",
    "categoria": "panaderia",
    "descripcion": "Panadería y pastelería.",
    "direccion": "Av. Loja y ",
    "telefono": "+593959007258",
    "latitud": -4.217414,
    "longitud": -79.257331,
    "icono": "icon-panaderia.jpeg",
    "imagenes": [
      "s12-panaderia.jpg"
    ],
    "destacado": false
  },
    {
    "nombre": "Ferreteria Disensa",
    "tipo": "servicios",
    "categoria": "ferreteria",
    "descripcion": "Venta de materiales para la construcción.",
    "direccion": "Av.Loja e ingreso a Calera esquina.",
    "telefono": "+593959007258",
    "latitud": -4.21646366,
    "longitud": -79.25574610,
    "icono": "icon-ferreteria.jpeg",
    "imagenes": [
      "s5-ferreteria-disensa.jpg",
      "s5.1.jpg"
    ]
  }

]
