[
  {
    "nombre": "Peluqueria Lauris",
    "tipo": "servicios",
    "categoria": "peluqueria",
    "descripcion": "Cortes, maquillaje y diseno de unas.",
    "direccion": "pio montufar y lauro coronel, esquina",
    "telefono": "+593959007258",
    "latitud": -4.22075350,
    "longitud": -79.25933824,
    "icono": "icon-peluqueria.jpeg",
    "imagenes": [
      "s1.jpg",
      "s1.1.jpg",
      "s1.2.jpg",
      "s1.3.jpg"
    ],
    "destacado": true,
    "banner": "banner-lauris.jpg"
  },
  {
    "nombre": "Lavadora ROA",
    "tipo": "servicios",
    "categoria": "lavadora",
    "descripcion": "Lavadora enderesada y pintura de carros.",
    "direccion": "Av.Loja diagonal a ferretería Disensa.",
    "telefono": "+593959007258",
    "latitud": -4.21624736,
    "longitud": -79.25480778,
    "icono": "icon-lavadora-carros.jpeg",
    "imagenes": [
      "s2-lavadora-carros.jpg",
      "s2.1.jpg"
    ]
  },
    {
    "nombre": "Comercial Narcisa de Jesús",
    "tipo": "servicios",
    "categoria": "tienda",
    "descripcion": "Venta de insumos y alimentos para el hogar.",
    "direccion": "pio montufar y lauro coronel, esquina",
    "telefono": "+593959007258",
    "latitud": -4.22045322,
    "longitud": -79.25902836,
    "icono": "icon-tienda.jpeg",
    "imagenes": [
      "s4-tienda-narcisa-jesus.jpg",
      "s4.1.jpg",
      "s4.2.jpg"
    ],
    "destacado": true
  },
  {
    "nombre": "Carpinteria Medina",
    "tipo": "servicios",
    "categoria": "carpinteria",
    "descripcion": "Diseño y construcción en madera.",
    "direccion": "Av. Loja diagonal a la entrada a Calera",
    "telefono": "+593959007258",
    "latitud": -4.216438,
    "longitud": -79.255175,
    "icono": "icon-carpinteria.jpeg",
    "imagenes": [
      "s6-carpinteria-medina-avenida.jpg",
      "s6.1.jpg",
      "s6.2.jpg"
    ],
    "destacado": false
  },
  {
    "nombre": "NCS Materiales",
    "tipo": "servicios",
    "categoria": "material petreo",
    "descripcion": "Venta de materiales para la costruccion y alquiler de equipo para la construcción.",
    "direccion": "Av.Loja y entrada a calera, esquina",
    "telefono": "+593959007258",
    "latitud": -4.216718,
    "longitud": -79.256153,
    "icono": "icon-material-petreo.jpeg",
    "imagenes": [
      "s7-material-petreo-ncs.jpg",
      "s7.1.jpg"
    ],
    "destacado": false
  },
    {
    "nombre": "Hostal Valto",
    "tipo": "servicios",
    "categoria": "hostal",
    "descripcion": "Centro reacresion y alojamiento temporal.",
    "direccion": "Pio montufar y",
    "telefono": "+593959007258",
    "latitud": -4.219635,
    "longitud": -79.257843,
    "icono": "icon-hostal.jpeg",
    "imagenes": [
      "s8-hostal-valto.jpg"
    ],
    "destacado": false
  },
  {
    "nombre": "Hostal Villa Colonial",
    "tipo": "servicios",
    "categoria": "hostal",
    "descripcion": "Centro reacresion y alojamiento temporal.",
    "direccion": "Pio montufar y estupiñan",
    "telefono": "+593959007258",
    "latitud": -4.219026,
    "longitud": -79.257750,
    "icono": "icon-hostal.jpeg",
    "imagenes": [
      "s9-hostal-villa-colonial.jpg"
    ],
    "destacado": false
  },

  {
    "nombre": "GABRIELA, bar restaurante, cafeteria",
    "tipo": "servicios",
    "categoria": "restaurante-cafe-bar",
    "descripcion": "Gastronomia local y sevicios gastronomicas.",
    "direccion": "Av. Loja y ",
    "telefono": "+593959007258",
    "latitud": -4.217181,
    "longitud": -79.256879,
    "icono": "icon-restaurante-cafe-bar.jpeg",
    "imagenes": [
      "s10-restaurante-cafe-bar-gabriela.jpg"
    ],
    "destacado": false
  },
    {
    "nombre": "Supermercado JALEK",
    "tipo": "servicios",
    "categoria": "supermercado",
    "descripcion": "Venta de todo tipo de insumos para el hogar.",
    "direccion": "Av. Loja y ",
    "telefono": "+593959007258",
    "latitud": -4.217257,
    "longitud": -79.257198,
    "icono": "icon-supermercado.jpeg",
    "imagenes": [
      "s11-supermercado-halek.jpg"
    ],
    "destacado": false
  },
    {
    "nombre": "Panadería Sabor Lojano",
    "tipo": "servicios",
    "categoria": "panaderia",
    "descripcion": "Panadería y pastelería.",
    "direccion": "Av. Loja y ",
    "telefono": "+593959007258",
    "latitud": -4.217414,
    "longitud": -79.257331,
    "icono": "icon-panaderia.jpeg",
    "imagenes": [
      "s12-panaderia.jpg"
    ],
    "destacado": false
  },

  {
    "nombre": "Cabañas del sol",
    "tipo": "servicios",
    "categoria": "hosteria",
    "descripcion": "recreación y hospedaje.",
    "direccion": "Av. Loja y ",
    "telefono": "+593959007258",
    "latitud": -4.214117,
    "longitud": -79.251013,
    "icono": "icon-hosteria.jpeg",
    "imagenes": [
      "s13-hosteria-cabañas-sol.jpg"
    ],
    "destacado": false
  },
  {
    "nombre": "Kita Picas",
    "tipo": "servicios",
    "categoria": "licoreria",
    "descripcion": "Venta de bebidas alcoholicas y no alcoholicas.",
    "direccion": "Av. Loja y ",
    "telefono": "+593959007258",
    "latitud": -4.217141,
    "longitud": -79.256367,
    "icono": "icon-licoreria.jpeg",
    "imagenes": [
      "s14-licoreria.jpg"
    ],
    "destacado": false
  },
    {
    "nombre": "Tecni Centro Delgado",
    "tipo": "servicios",
    "categoria": "Mecanica",
    "descripcion": "Arreglo, lavado de autos y servicio de torno.",
    "direccion": "Av. Loja y ",
    "telefono": "+593959007258",
    "latitud": -4.217648,
    "longitud": -79.257414,
    "icono": "icon-mecanica.jpeg",
    "imagenes": [
      "s15-mecanica.jpg"
    ],
    "destacado": false
  },
  
    {
    "nombre": "Ferretería CODECA materiales de construcción",
    "tipo": "servicios",
    "categoria": "ferreteria",
    "descripcion": "Venta de productos de construcción",
    "direccion": "Av. Loja y ",
    "telefono": "+593959007258",
    "latitud": -4.217630,
    "longitud": -79.257771,
    "icono": "icon-ferreteria.jpeg",
    "imagenes": [
      "s16-ferreteria.jpg"
    ],
    "destacado": false
  },
  
  {
    "nombre": "Supermercado Sumba",
    "tipo": "servicios",
    "categoria": "supermercado",
    "descripcion": "Venta de todo tipo de insumos para el hogar.",
    "direccion": "Av. Loja y ",
    "telefono": "+593959007258",
    "latitud": -4.217488,
    "longitud": -79.257537,
    "icono": "icon-supermercado.jpeg",
    "imagenes": [
      "s18-supermercado-sumba.jpg"
    ],
    "destacado": false
  },
    {
    "nombre": "Agropecuaria El finquero",
    "tipo": "servicios",
    "categoria": "agropecuaria",
    "descripcion": "Venta de producto agropecuario",
    "direccion": "Av. Loja y ",
    "telefono": "+593959007258",
    "latitud": -4.217793,
    "longitud": -79.257629,
    "icono": "icon-agropecuaria.jpeg",
    "imagenes": [
      "s17-agropecuaria.jpg"
    ],
    "destacado": false
  },
  {
    "nombre": "Agropecuaria Vilcagro",
    "tipo": "servicios",
    "categoria": "agropecuaria",
    "descripcion": "Venta de producto agropecuario",
    "direccion": "Av. Loja y ",
    "telefono": "+593959007258",
    "latitud": -4.217739,
    "longitud": -79.257463,
    "icono": "icon-agropecuaria.jpeg",
    "imagenes": [
      "s19-agropecuaria.jpg"
    ],
    "destacado": false
  },
    {
    "nombre": "Restaurante Rojas",
    "tipo": "servicios",
    "categoria": "restaurante",
    "descripcion": "Gastronomia local y sevicios gastronomicas.",
    "direccion": "Av. Loja y ",
    "telefono": "+593959007258",
    "latitud": -4.217557,
    "longitud": -79.257183,
    "icono": "icon-restaurante.jpeg",
    "imagenes": [
      "s20-restaurante-rojas.jpg"
    ],
    "destacado": false
  },
  {
    "nombre": "Farmacia Cuxibamba",
    "tipo": "servicios",
    "categoria": "farmacia",
    "descripcion": "Medicina y medicamentos para su salud.",
    "direccion": "Av. Loja y ",
    "telefono": "+593959007258",
    "latitud": -4.218150,
    "longitud": -79.258686,
    "icono": "icon-farmacia.jpeg",
    "imagenes": [
      "s21-farmacia-cuxibamba.jpg"
    ],
    "destacado": false
  },
    {
    "nombre": "Farmacia Economica",
    "tipo": "servicios",
    "categoria": "farmacia",
    "descripcion": "Medicina y medicamentos para su salud.",
    "direccion": "Av. Loja y ",
    "telefono": "+593959007258",
    "latitud": -4.218160,
    "longitud": -79.258302,
    "icono": "icon-farmacia.jpeg",
    "imagenes": [
      "s22-farmacia-economica.jpg"
    ],
    "destacado": false
  },
    {
    "nombre": "Farmacia Nuestra Señora de Lourdes",
    "tipo": "servicios",
    "categoria": "farmacia",
    "descripcion": "Medicina y medicamentos para su salud.",
    "direccion": "Av. Loja y ",
    "telefono": "+593959007258",
    "latitud": -4.218023,
    "longitud": -79.258514,
    "icono": "icon-farmacia.jpeg",
    "imagenes": [
      "s23-farmacia-nuestra-señora-lourdes.jpg"
    ],
    "destacado": false
  },
    {
    "nombre": "Proton",
    "tipo": "servicios",
    "categoria": "celulares",
    "descripcion": "Servicio tectico y accesorios telefonicos.",
    "direccion": "Av. Loja y ",
    "telefono": "+593959007258",
    "latitud": -4.218467,
    "longitud": -79.258359,
    "icono": "icon-celulares.jpeg",
    "imagenes": [
      "s24-celulares-proton.jpg"
    ],
    "destacado": false
  },
  {
    "nombre": "Yunnan",
    "tipo": "servicios",
    "categoria": "chifa",
    "descripcion": "Venta de gastronomía China.",
    "direccion": "Av. Loja y ",
    "telefono": "+593959007258",
    "latitud": -4.215658,
    "longitud": -79.253654,
    "icono": "icon-chifa.jpeg",
    "imagenes": [
      "s25-chifa.jpg"
    ],
    "destacado": false
  },
  {
    "nombre": "LaPampa",
    "tipo": "servicios",
    "categoria": "canchas-futbol",
    "descripcion": "Espacio recreacional, para campionatos de varones y mujeres.",
    "direccion": "Entrada a la granja 300m ",
    "telefono": "+593959007258",
    "latitud": -4.215567,
    "longitud": -79.255660,
    "icono": "icon-canchas-futbol.jpeg",
    "imagenes": [
      "s26-canchas-la-pampa.jpg"
    ],
    "destacado": false
  },
  {
    "nombre": "Dicoteca Level ONE",
    "tipo": "servicios",
    "categoria": "bar-discoteca",
    "descripcion": "Fiesta y disfrute entre amigos.",
    "direccion": "Av. Loja y ",
    "telefono": "+593959007258",
    "latitud": -4.215557,
    "longitud": -79.257198,
    "icono": "icon-bar-discoteca.jpeg",
    "imagenes": [
      "s11-supermercado-halek.jpg"
    ],
    "destacado": false
  },
    {
    "nombre": "Ferreteria Disensa",
    "tipo": "servicios",
    "categoria": "ferreteria",
    "descripcion": "Venta de materiales para la construcción.",
    "direccion": "Av.Loja e ingreso a Calera esquina.",
    "telefono": "+593959007258",
    "latitud": -4.21646366,
    "longitud": -79.25574610,
    "icono": "icon-ferreteria.jpeg",
    "imagenes": [
      "s5-ferreteria-disensa.jpg",
      "s5.1.jpg"
    ]
  }

]
